City_ID,City,Lat,Lng,Max Temp,Humidity,Cloudiness,Wind Speed,Country,Date
0,dingle,10.9995,122.6711,296.44,91,98,4.92,PH,2023-01-28 14:39:59
1,tsabong,-26.0217,22.401,301.2,32,24,0.64,BW,2023-01-28 14:40:00
2,hithadhoo,-0.6,73.0833,300.43,77,30,5.19,MV,2023-01-28 14:37:53
3,albany,42.6001,-73.9662,276.44,64,95,2.11,US,2023-01-28 14:29:41
4,gold coast,-28.0,153.4333,301.98,78,96,2.06,AU,2023-01-28 14:40:03
5,talnakh,69.4865,88.3972,252.64,99,97,2.2,RU,2023-01-28 14:40:04
6,nikolskoye,59.7035,30.7861,269.15,92,100,5.2,RU,2023-01-28 14:39:32
7,ostrovnoy,68.0531,39.5131,270.45,90,100,9.77,RU,2023-01-28 14:40:05
8,phalaborwa,-23.943,31.1411,297.21,52,2,2.53,ZA,2023-01-28 14:40:07
9,arraial do cabo,-22.9661,-42.0278,300.07,83,0,1.54,BR,2023-01-28 14:40:08
10,hermanus,-34.4187,19.2345,290.26,66,97,8.44,ZA,2023-01-28 14:40:09
11,souillac,-20.5167,57.5167,297.36,94,75,1.54,MU,2023-01-28 14:40:10
12,saskylakh,71.9167,114.0833,237.52,98,97,1.39,RU,2023-01-28 14:40:11
13,uji,34.8833,135.8,273.35,63,9,1.53,JP,2023-01-28 14:40:12
14,melo,-32.3667,-54.1833,296.85,77,62,3.84,UY,2023-01-28 14:40:13
15,bantou,26.2151,117.4893,273.64,68,5,0.45,CN,2023-01-28 14:40:14
16,ushuaia,-54.8,-68.3,287.96,47,40,9.26,AR,2023-01-28 14:40:14
17,nambutalai,9.7167,79.0,294.84,82,100,4.53,IN,2023-01-28 14:40:15
18,jamestown,42.097,-79.2353,275.95,51,100,3.09,US,2023-01-28 14:40:16
19,rikitea,-23.1203,-134.9692,298.92,74,56,6.44,PF,2023-01-28 14:39:29
20,vaini,-21.2,-175.2,301.24,89,75,5.14,TO,2023-01-28 14:40:18
21,batagay-alyta,67.8006,130.4114,233.63,96,65,0.83,RU,2023-01-28 14:40:20
22,manaquiri,-3.3167,-60.35,298.42,94,81,1.32,BR,2023-01-28 14:40:20
23,caravelas,-17.7125,-39.2481,297.79,88,83,2.23,BR,2023-01-28 14:40:22
24,new norfolk,-42.7826,147.0587,293.1,42,53,0.84,AU,2023-01-28 14:40:23
25,laguna,38.421,-121.4238,289.44,47,0,2.06,US,2023-01-28 14:40:23
26,saint-philippe,-21.3585,55.7679,298.92,90,99,2.15,RE,2023-01-28 14:40:24
27,kapaa,22.0752,-159.319,299.33,67,20,10.29,US,2023-01-28 14:40:10
28,san patricio,28.017,-97.5169,294.92,76,98,7.58,US,2023-01-28 14:37:47
29,charters towers,-20.1,146.2667,299.7,74,55,6.6,AU,2023-01-28 14:40:26
30,namatanai,-3.6667,152.4333,301.96,69,86,1.76,PG,2023-01-28 14:40:26
31,chara,56.9064,118.2631,250.9,82,91,0.61,RU,2023-01-28 14:40:27
32,yellowknife,62.456,-114.3525,249.57,70,0,5.14,CA,2023-01-28 14:38:45
33,korem,12.5058,39.5228,283.04,81,41,1.32,ET,2023-01-28 14:40:28
34,busselton,-33.65,115.3333,287.98,69,33,5.65,AU,2023-01-28 14:40:30
35,marienburg,54.0359,19.0266,275.95,87,49,4.46,PL,2023-01-28 14:40:30
36,dikson,73.5069,80.5464,247.61,97,98,2.92,RU,2023-01-28 14:40:31
37,sao filipe,14.8961,-24.4956,296.52,69,57,4.74,CV,2023-01-28 14:40:32
38,bluff,-46.6,168.3333,289.87,68,10,4.06,NZ,2023-01-28 14:40:32
39,sur,22.5667,59.5289,292.79,66,10,7.37,OM,2023-01-28 14:40:33
40,khatanga,71.9667,102.5,237.64,96,30,2.97,RU,2023-01-28 14:40:34
41,pisco,-13.7,-76.2167,296.18,88,20,2.06,PE,2023-01-28 14:40:35
42,qaanaaq,77.484,-69.3632,253.1,54,17,4.37,GL,2023-01-28 14:40:14
43,bilma,18.6853,12.9164,296.3,14,90,3.06,NE,2023-01-28 14:40:35
44,east london,-33.0153,27.9116,293.16,79,100,7.82,ZA,2023-01-28 14:40:36
45,saint anthony,45.0205,-93.218,259.71,62,0,5.14,US,2023-01-28 14:40:37
46,rawson,-43.3002,-65.1023,300.72,27,0,6.54,AR,2023-01-28 14:40:38
47,kudahuvadhoo,2.6708,72.8944,300.12,74,63,4.36,MV,2023-01-28 14:40:39
48,bandarbeyla,9.4942,50.8122,297.45,72,94,8.41,SO,2023-01-28 14:40:39
49,hobart,-42.8794,147.3294,293.29,66,66,0.87,AU,2023-01-28 14:40:21
50,mataura,-46.1927,168.8643,296.89,38,8,0.47,NZ,2023-01-28 14:39:32
51,geraldton,-28.7667,114.6,291.38,77,0,4.12,AU,2023-01-28 14:40:24
52,barrow,71.2906,-156.7887,252.16,77,100,4.63,US,2023-01-28 14:40:41
53,punta arenas,-53.15,-70.9167,290.21,39,40,16.98,CL,2023-01-28 14:40:42
54,tukrah,32.5341,20.5791,285.87,60,5,4.09,LY,2023-01-28 14:40:42
55,salinopolis,-0.6136,-47.3561,298.38,84,95,2.82,BR,2023-01-28 14:40:43
56,fortuna,40.5982,-124.1573,283.52,78,100,6.69,US,2023-01-28 14:40:44
57,bayanday,53.0661,105.5139,257.76,99,100,1.02,RU,2023-01-28 14:40:44
58,castro,-24.7911,-50.0119,293.0,54,0,0.98,BR,2023-01-28 14:40:26
59,ponta delgada,37.7333,-25.6667,286.55,82,40,4.12,PT,2023-01-28 14:37:51
60,puerto ayora,-0.7393,-90.3518,301.13,93,77,2.68,EC,2023-01-28 14:40:46
61,tasiilaq,65.6145,-37.6368,268.24,92,100,4.79,GL,2023-01-28 14:40:32
62,meiganga,6.5167,14.3,294.84,29,92,1.74,CM,2023-01-28 14:40:48
63,husavik,66.0449,-17.3389,274.8,90,60,5.1,IS,2023-01-28 14:40:49
64,faanui,-16.4833,-151.75,300.44,73,8,5.81,PF,2023-01-28 14:37:38
65,lamu,-2.2717,40.902,298.27,85,2,5.89,KE,2023-01-28 14:40:50
66,labuhan,-6.8844,112.2051,297.72,90,100,2.54,ID,2023-01-28 14:40:51
67,hilo,19.7297,-155.09,294.97,88,100,3.09,US,2023-01-28 14:40:51
68,tuktoyaktuk,69.4541,-133.0374,248.15,77,75,6.69,CA,2023-01-28 14:40:52
69,port elizabeth,-33.918,25.5701,291.31,83,100,3.6,ZA,2023-01-28 14:40:52
70,ponta do sol,32.6667,-17.1,287.99,73,15,3.17,PT,2023-01-28 14:40:53
71,birobidzhan,48.8,132.95,238.13,96,23,0.96,RU,2023-01-28 14:40:54
72,ossora,59.2353,163.0719,268.79,97,100,1.83,RU,2023-01-28 14:40:54
73,keetmanshoop,-26.5833,18.1333,295.55,41,2,6.7,NA,2023-01-28 14:40:55
74,esperance,-33.8667,121.9,289.12,66,1,3.53,AU,2023-01-28 14:40:56
75,hasanabad,36.5465,61.0543,276.95,65,3,4.62,IR,2023-01-28 14:40:56
76,mataram,-8.5833,116.1167,297.6,87,100,1.49,ID,2023-01-28 14:37:49
77,torbay,47.6666,-52.7314,271.63,80,20,3.09,CA,2023-01-28 14:40:58
78,tuatapere,-46.1333,167.6833,293.04,52,7,2.77,NZ,2023-01-28 14:40:59
79,beringovskiy,63.05,179.3167,264.97,99,28,2.53,RU,2023-01-28 14:41:00
80,komsomolskiy,40.4272,71.7189,272.55,69,100,0.0,UZ,2023-01-28 14:41:00
81,avarua,-21.2078,-159.775,302.18,74,60,4.63,CK,2023-01-28 14:41:01
82,vysokogornyy,50.1167,139.15,240.96,100,96,1.85,RU,2023-01-28 14:41:02
83,umea,63.8284,20.2597,274.11,60,6,7.2,SE,2023-01-28 14:41:03
84,dukat,62.55,155.55,242.05,99,93,0.62,RU,2023-01-28 14:41:03
85,iquique,-20.2208,-70.1431,296.17,83,55,1.19,CL,2023-01-28 14:41:04
86,kavaratti,10.5669,72.642,299.52,73,6,5.17,IN,2023-01-28 14:41:05
87,iqaluit,63.7506,-68.5145,239.0,68,75,1.54,CA,2023-01-28 14:41:06
88,dzilam gonzalez,21.2833,-88.9333,297.98,79,69,2.96,MX,2023-01-28 14:41:07
89,klaksvik,62.2266,-6.589,281.66,92,100,15.55,FO,2023-01-28 14:41:08
90,manzhouli,49.6,117.4333,253.32,96,63,4.21,CN,2023-01-28 14:39:23
91,cabo san lucas,22.8909,-109.9124,296.21,63,100,5.66,MX,2023-01-28 14:37:08
92,mago,53.2514,140.1822,237.44,100,77,0.51,RU,2023-01-28 14:41:11
93,isangel,-19.55,169.2667,303.21,79,75,2.06,VU,2023-01-28 14:41:11
94,victoria,22.2855,114.1577,284.4,33,6,5.36,HK,2023-01-28 14:37:39
95,richards bay,-28.783,32.0377,296.96,88,56,8.23,ZA,2023-01-28 14:41:13
96,hay river,60.8156,-115.7999,251.14,71,20,6.69,CA,2023-01-28 14:41:13
97,atuona,-9.8,-139.0333,299.12,76,30,8.68,PF,2023-01-28 14:37:51
98,inhambane,-23.865,35.3833,296.57,92,5,1.44,MZ,2023-01-28 14:41:15
99,mahebourg,-20.4081,57.7,298.29,94,75,1.54,MU,2023-01-28 14:40:53
100,havelock,34.8791,-76.9013,286.14,63,0,3.6,US,2023-01-28 14:41:17
101,matay,28.419,30.7792,288.84,38,54,2.44,EG,2023-01-28 14:41:19
102,albion,42.2431,-84.753,271.25,87,100,2.06,US,2023-01-28 14:41:19
103,meulaboh,4.1363,96.1285,296.8,87,100,1.28,ID,2023-01-28 14:41:20
104,cape town,-33.9258,18.4232,291.55,60,0,11.32,ZA,2023-01-28 14:38:10
105,arroio grande,-32.2375,-53.0869,295.31,95,95,2.4,BR,2023-01-28 14:41:21
106,paamiut,61.994,-49.6678,263.12,79,100,3.05,GL,2023-01-28 14:41:22
107,jalu,29.0331,21.5482,285.89,46,0,4.09,LY,2023-01-28 14:41:23
108,biryusinsk,55.9634,97.8235,268.55,95,100,3.6,RU,2023-01-28 14:41:24
109,port alfred,-33.5906,26.891,291.03,84,100,1.34,ZA,2023-01-28 14:40:00
110,do gonbadan,30.3586,50.7981,278.2,87,0,0.0,IR,2023-01-28 14:41:25
111,bubaque,11.2833,-15.8333,298.0,81,53,5.52,GW,2023-01-28 14:41:26
112,ribeira grande,38.5167,-28.7,286.91,80,11,4.47,PT,2023-01-28 14:41:26
113,ancud,-41.8697,-73.8203,290.51,82,14,2.8,CL,2023-01-28 14:41:27
114,gilbues,-9.8317,-45.3439,296.31,80,65,0.65,BR,2023-01-28 14:41:27
115,carnarvon,-24.8667,113.6333,297.37,76,0,7.63,AU,2023-01-28 14:41:28
116,davila,18.4726,120.5763,295.14,80,53,9.87,PH,2023-01-28 14:41:29
117,hofn,64.2539,-15.2082,276.92,75,54,4.6,IS,2023-01-28 14:41:30
118,velikiy ustyug,60.7644,46.3106,263.3,89,79,4.51,RU,2023-01-28 14:41:31
119,bredasdorp,-34.5322,20.0403,290.16,58,100,5.0,ZA,2023-01-28 14:41:32
120,vanimo,-2.6741,141.3028,300.77,73,76,1.94,PG,2023-01-28 14:41:32
121,noumea,-22.2763,166.4572,299.26,99,100,3.52,NC,2023-01-28 14:41:33
122,xiuyan,40.2928,123.2744,263.62,75,60,0.87,CN,2023-01-28 14:41:34
123,panzhihua,26.5851,101.7128,282.52,69,100,0.3,CN,2023-01-28 14:41:35
124,coos bay,43.3665,-124.2179,282.03,92,100,3.6,US,2023-01-28 14:41:36
125,tuy hoa,13.0833,109.3,293.53,85,100,6.7,VN,2023-01-28 14:39:46
126,upernavik,72.7868,-56.1549,255.14,93,100,6.42,GL,2023-01-28 14:41:37
127,southampton,50.904,-1.4043,278.15,86,95,1.01,GB,2023-01-28 14:37:43
128,portland,45.5234,-122.6762,282.29,84,100,2.57,US,2023-01-28 14:39:31
129,te anau,-45.4167,167.7167,295.4,34,4,0.63,NZ,2023-01-28 14:41:39
130,paka,4.6374,103.4368,296.11,94,100,1.03,MY,2023-01-28 14:41:39
131,port hardy,50.6996,-127.4199,278.25,87,40,3.09,CA,2023-01-28 14:41:40
132,oktyabrskiy,54.4815,53.471,255.74,99,89,2.16,RU,2023-01-28 14:41:41
133,naze,28.3667,129.4833,281.66,69,93,4.6,JP,2023-01-28 14:41:41
134,tottori,35.5,134.2333,273.19,80,75,2.06,JP,2023-01-28 14:41:42
135,buin,-33.7333,-70.75,306.33,20,0,3.5,CL,2023-01-28 14:41:43
136,nome,64.5011,-165.4064,269.19,93,100,3.09,US,2023-01-28 14:41:44
137,lucapa,-8.4192,20.7447,291.45,95,100,0.88,AO,2023-01-28 14:41:45
138,kailua,21.4022,-157.7394,299.14,91,100,2.24,US,2023-01-28 14:41:45
139,yerbogachen,61.2767,108.0108,237.62,100,69,1.09,RU,2023-01-28 14:41:46
140,leeton,-34.5667,146.4,302.79,37,100,5.75,AU,2023-01-28 14:41:47
141,ugoofaaru,5.6667,73.0,299.48,77,0,3.2,MV,2023-01-28 14:41:48
142,bethel,41.3712,-73.414,282.08,46,0,1.54,US,2023-01-28 14:41:48
143,dawlatabad,36.4141,64.9053,273.47,87,100,1.07,AF,2023-01-28 14:41:49
144,clyde river,70.4692,-68.5914,252.28,71,100,3.09,CA,2023-01-28 14:41:50
145,alice springs,-23.7,133.8833,298.9,83,100,2.57,AU,2023-01-28 14:40:22
146,kiama,-34.6833,150.8667,302.73,81,88,3.58,AU,2023-01-28 14:41:51
147,zhigansk,66.7697,123.3711,231.7,95,100,4.2,RU,2023-01-28 14:41:15
148,la ronge,55.1001,-105.2842,254.29,60,75,7.2,CA,2023-01-28 14:41:52
149,kenai,60.5544,-151.2583,273.76,76,40,0.0,US,2023-01-28 14:41:53
150,jauharabad,32.2898,72.2813,283.3,36,59,2.07,PK,2023-01-28 14:41:53
151,baijiantan,45.6333,85.1833,250.74,95,7,1.09,CN,2023-01-28 14:41:54
152,surt,31.2089,16.5887,286.85,34,0,3.55,LY,2023-01-28 14:41:54
153,ewo,-0.8725,14.8206,297.97,63,41,1.04,CG,2023-01-28 14:41:55
154,manyana,-23.4,21.7167,301.38,27,64,1.47,BW,2023-01-28 14:41:56
155,ahipara,-35.1667,173.1667,296.83,74,99,4.86,NZ,2023-01-28 14:41:56
156,okhotsk,59.3833,143.3,245.31,84,94,4.66,RU,2023-01-28 14:41:57
157,campo grande,-20.4428,-54.6464,300.9,65,20,3.6,BR,2023-01-28 14:41:58
158,tilichiki,60.4667,166.1,269.57,88,94,4.97,RU,2023-01-28 14:41:58
159,mehamn,71.0357,27.8492,272.12,80,96,6.69,NO,2023-01-28 14:41:59
160,malakal,9.5334,31.6605,300.34,23,38,2.29,SS,2023-01-28 14:42:00
161,lukovetskiy,64.2956,41.9211,267.78,92,100,5.58,RU,2023-01-28 14:42:00
162,maumere,-8.6199,122.2111,300.38,83,98,3.06,ID,2023-01-28 14:42:01
163,qandala,11.472,49.8728,297.15,72,48,2.32,SO,2023-01-28 14:42:01
164,vodnyy,63.5046,53.4095,266.34,89,100,4.98,RU,2023-01-28 14:42:02
165,najran,17.4924,44.1277,287.51,75,50,1.71,SA,2023-01-28 14:39:57
166,yulara,-25.2406,130.9889,298.37,69,100,3.1,AU,2023-01-28 14:40:15
167,langsa,4.4683,97.9683,296.15,96,100,0.72,ID,2023-01-28 14:42:05
168,albanel,48.8832,-72.4487,263.23,61,85,7.72,CA,2023-01-28 14:42:06
169,shelburne,44.0787,-80.2041,269.57,83,100,2.27,CA,2023-01-28 14:42:06
170,norman wells,65.282,-126.8329,248.17,77,20,6.69,CA,2023-01-28 14:42:07
171,bakel,14.905,-12.4568,295.46,10,45,4.2,SN,2023-01-28 14:37:47
172,gimbi,9.1667,35.8333,289.46,27,83,1.07,ET,2023-01-28 14:42:08
173,kulhudhuffushi,6.6221,73.07,299.62,77,6,3.33,MV,2023-01-28 14:42:09
174,luganville,-15.5333,167.1667,302.97,68,9,2.84,VU,2023-01-28 14:42:10
175,touros,-5.1989,-35.4608,299.75,73,6,6.24,BR,2023-01-28 14:42:12
176,pingzhuang,42.0372,119.2889,262.57,71,15,3.34,CN,2023-01-28 14:42:12
177,santa rosa,14.3122,121.1114,297.14,81,90,6.41,PH,2023-01-28 14:42:13
178,jiayuguan,39.8167,98.3,263.78,41,81,1.77,CN,2023-01-28 14:42:14
179,baturaja,-4.1333,104.1667,296.13,94,100,3.05,ID,2023-01-28 14:42:15
180,tarancon,40.0085,-3.0073,272.5,69,2,5.9,ES,2023-01-28 14:42:16
181,thinadhoo,0.5333,72.9333,300.1,77,32,4.01,MV,2023-01-28 14:40:14
182,champerico,14.3,-91.9167,305.45,65,22,4.95,GT,2023-01-28 14:42:17
183,ballitoville,-29.539,31.2144,297.23,69,100,7.2,ZA,2023-01-28 14:42:17
184,xingtai,37.0631,114.4942,273.3,21,0,1.88,CN,2023-01-28 14:42:18
185,namibe,-15.1961,12.1522,296.67,84,100,2.82,AO,2023-01-28 14:42:19
186,bambous virieux,-20.3428,57.7575,298.27,94,75,1.54,MU,2023-01-28 14:42:20
187,boueni,-12.9025,45.0761,301.14,77,4,2.71,YT,2023-01-28 14:42:20
188,fairbanks,64.8378,-147.7164,265.15,85,100,0.0,US,2023-01-28 14:42:21
189,muzhi,65.3667,64.6667,253.57,96,15,1.83,RU,2023-01-28 14:42:22
190,gasa,31.5,34.4667,286.97,85,66,3.72,PS,2023-01-28 14:42:23
191,bengkulu,-3.8004,102.2655,297.26,87,93,3.74,ID,2023-01-28 14:41:10
192,grand island,40.925,-98.342,263.31,86,100,8.23,US,2023-01-28 14:39:47
193,nicolas bravo,18.45,-88.9167,299.1,66,17,2.75,MX,2023-01-28 14:42:25
194,port macquarie,-31.4333,152.9167,301.98,72,52,5.1,AU,2023-01-28 14:42:26
195,skagen,57.7209,10.5839,278.92,81,98,13.06,DK,2023-01-28 14:42:26
196,udala,43.0778,-2.5125,275.2,96,100,1.72,ES,2023-01-28 14:42:27
197,brae,60.3964,-1.353,280.44,82,100,12.66,GB,2023-01-28 14:42:28
198,tarko-sale,64.9225,77.785,257.31,97,98,2.97,RU,2023-01-28 14:42:29
199,sao jose da coroa grande,-8.8978,-35.1478,299.2,70,9,4.16,BR,2023-01-28 14:42:29
200,rio do sul,-27.2142,-49.6431,294.08,94,65,1.28,BR,2023-01-28 14:42:30
201,georgetown,5.4112,100.3354,298.12,78,20,1.03,MY,2023-01-28 14:41:13
202,hamina,60.5697,27.1979,272.75,91,68,6.15,FI,2023-01-28 14:42:31
203,saint george,37.1041,-113.5841,286.45,35,0,2.06,US,2023-01-28 14:39:40
204,bathsheba,13.2167,-59.5167,298.49,65,20,3.6,BB,2023-01-28 14:42:32
205,henties bay,-22.116,14.2845,291.42,82,75,2.32,NA,2023-01-28 14:42:33
206,acapulco,16.8634,-99.8901,303.05,58,0,3.09,MX,2023-01-28 14:37:46
207,sitka,57.0531,-135.33,280.09,39,0,2.06,US,2023-01-28 14:42:34
208,yar-sale,66.8333,70.8333,251.7,97,91,3.85,RU,2023-01-28 14:42:35
209,hailar,49.2,119.7,248.44,99,99,0.61,CN,2023-01-28 14:42:35
210,tiksi,71.6872,128.8694,239.09,99,100,2.82,RU,2023-01-28 14:41:43
211,mount isa,-20.7333,139.5,299.02,73,99,2.06,AU,2023-01-28 14:42:36
212,ribas do rio pardo,-20.4431,-53.7592,297.58,83,24,2.16,BR,2023-01-28 14:42:37
213,sorland,67.667,12.6934,277.07,74,85,9.47,NO,2023-01-28 14:42:38
214,lakinsk,56.0193,39.9485,267.96,97,100,2.21,RU,2023-01-28 14:42:38
215,cherskiy,68.75,161.3,242.26,98,92,2.2,RU,2023-01-28 14:41:24
216,coquimbo,-29.9533,-71.3436,293.0,72,0,4.63,CL,2023-01-28 14:40:07
217,kahului,20.8947,-156.47,294.73,88,100,3.13,US,2023-01-28 14:28:54
218,farah,32.5,62.5,275.08,79,62,0.91,AF,2023-01-28 14:42:40
219,abu samrah,35.3029,37.1841,280.12,80,62,2.25,SY,2023-01-28 14:42:41
220,airai,-8.9266,125.4092,291.43,85,84,0.45,TL,2023-01-28 14:42:42
221,pokrovsk,48.282,37.1758,272.48,87,100,4.23,UA,2023-01-28 14:42:42
222,union,40.6334,-74.2663,283.77,48,100,1.79,US,2023-01-28 14:42:43
223,saurimo,-9.6608,20.3916,290.77,94,100,1.04,AO,2023-01-28 14:42:44
224,diego de almagro,-26.3667,-70.05,296.64,35,34,3.79,CL,2023-01-28 14:42:44
225,puksoozero,62.5903,40.6066,265.13,91,100,5.38,RU,2023-01-28 14:42:45
226,severo-kurilsk,50.6789,156.125,269.45,80,100,7.01,RU,2023-01-28 14:41:59
227,samarinda,-0.5,117.15,296.26,98,98,0.75,ID,2023-01-28 14:39:02
228,lovington,32.944,-103.3485,290.62,19,39,1.79,US,2023-01-28 14:42:46
229,nhulunbuy,-12.2333,136.7667,298.49,100,100,0.0,AU,2023-01-28 14:42:47
230,oxilithos,38.5833,24.1167,281.33,73,76,3.66,GR,2023-01-28 14:42:48
231,vila,42.0304,-8.1588,272.64,81,11,2.38,PT,2023-01-28 14:42:48
232,ucluelet,48.9329,-125.5528,281.32,86,36,3.25,CA,2023-01-28 14:42:49
233,prachuap khiri khan,12.2167,99.75,290.65,75,48,1.43,TH,2023-01-28 14:38:14
234,horten,59.4155,10.4853,277.34,60,95,4.63,NO,2023-01-28 14:42:50
235,kirkwall,58.9848,-2.9587,280.91,81,40,8.23,GB,2023-01-28 14:42:51
236,butaritari,3.0707,172.7902,300.41,80,97,11.01,KI,2023-01-28 14:42:51
237,ankang,32.68,109.0172,274.17,43,0,0.39,CN,2023-01-28 14:39:19
238,bulawayo,-20.15,28.5833,292.23,52,94,2.13,ZW,2023-01-28 14:42:53
239,sao felix do xingu,-6.6447,-51.995,295.81,97,97,0.41,BR,2023-01-28 14:42:53
240,saint-michel-des-saints,46.6834,-73.9159,262.67,88,85,4.44,CA,2023-01-28 14:39:45
241,andenes,69.3143,16.1194,275.33,87,75,11.83,NO,2023-01-28 14:42:54
242,bani walid,31.7566,13.9942,281.11,41,0,2.31,LY,2023-01-28 14:42:55
243,longido,-2.7333,36.6833,290.22,68,1,4.08,TZ,2023-01-28 14:42:56
244,kolondieba,11.0882,-6.8926,298.46,16,98,2.29,ML,2023-01-28 14:42:56
245,alugan,12.2188,125.4808,298.73,86,48,7.65,PH,2023-01-28 14:42:57
246,hue,16.4667,107.6,287.21,100,75,3.09,VN,2023-01-28 14:42:58
247,nouadhibou,20.931,-17.0347,291.14,55,73,7.72,MR,2023-01-28 14:42:59
248,padang,-0.9492,100.3543,297.57,85,100,2.19,ID,2023-01-28 14:42:59
249,ternate,0.8,127.4,299.19,77,100,1.78,ID,2023-01-28 14:43:00
250,chokurdakh,70.6333,147.9167,239.86,98,86,0.63,RU,2023-01-28 14:41:19
251,asau,46.4333,26.4,271.66,90,100,1.65,RO,2023-01-28 14:43:01
252,zyryanka,65.75,150.85,239.49,100,99,1.89,RU,2023-01-28 14:43:02
253,egvekinot,66.3167,-179.1667,261.12,97,99,0.3,RU,2023-01-28 14:43:03
254,palaikastron,35.2,26.25,285.53,74,18,2.07,GR,2023-01-28 14:43:04
255,sembe,1.6481,14.5806,297.41,66,63,1.97,CG,2023-01-28 14:43:04
256,chuy,-33.6971,-53.4616,295.67,86,47,2.47,UY,2023-01-28 14:43:05
257,hamilton,39.1834,-84.5333,286.12,43,40,7.72,US,2023-01-28 14:34:44
258,haines junction,60.7522,-137.5108,262.87,92,97,0.31,CA,2023-01-28 14:43:06
259,quatre cocos,-20.2078,57.7625,298.2,86,93,1.74,MU,2023-01-28 14:43:07
260,longyearbyen,78.2186,15.6401,270.06,63,40,8.23,SJ,2023-01-28 14:42:50
261,daru,-9.0763,143.2092,301.14,75,93,1.85,PG,2023-01-28 14:43:08
262,maraba,-5.3686,-49.1178,298.25,100,20,0.0,BR,2023-01-28 14:43:09
263,cockburn town,21.4612,-71.1419,297.79,67,8,10.39,TC,2023-01-28 14:43:10
264,fort nelson,58.8053,-122.7002,260.9,59,0,0.89,CA,2023-01-28 14:40:45
265,trairi,-3.2778,-39.2689,299.4,80,81,4.44,BR,2023-01-28 14:41:31
266,sao joao da barra,-21.6403,-41.0511,300.2,88,61,7.34,BR,2023-01-28 14:43:02
267,vila franca do campo,37.7167,-25.4333,286.38,82,44,3.55,PT,2023-01-28 14:42:40
268,constitucion,-35.3333,-72.4167,292.45,61,3,6.52,CL,2023-01-28 14:39:51
269,jinchang,38.4953,102.1739,266.17,29,3,1.35,CN,2023-01-28 14:43:14
270,ayia marina,37.75,23.5333,283.89,74,97,4.19,GR,2023-01-28 14:43:15
271,caracoli,6.4119,-74.7606,296.66,76,1,0.62,CO,2023-01-28 14:43:16
272,nogliki,51.8333,143.1667,250.42,78,97,6.57,RU,2023-01-28 14:43:17
273,lompoc,34.6391,-120.4579,292.05,74,0,6.71,US,2023-01-28 14:43:18
274,oistins,13.0667,-59.5333,298.2,65,20,3.6,BB,2023-01-28 14:42:35
275,korla,41.7597,86.1469,263.31,73,57,1.14,CN,2023-01-28 14:40:57
276,olinda,-8.0089,-34.8553,301.0,61,40,5.14,BR,2023-01-28 14:43:20
277,half moon bay,37.4636,-122.4286,290.1,70,100,6.69,US,2023-01-28 14:43:20
278,winnemucca,40.973,-117.7357,277.41,53,18,3.0,US,2023-01-28 14:43:21
279,nishihara,26.1842,127.7558,284.75,74,75,8.75,JP,2023-01-28 14:43:22
280,dalvik,65.9702,-18.5286,279.11,85,79,4.4,IS,2023-01-28 14:43:23
281,xai-xai,-25.0519,33.6442,296.46,92,0,1.71,MZ,2023-01-28 14:43:23
282,escarcega,18.6089,-90.7454,300.33,56,66,2.64,MX,2023-01-28 14:43:24
283,crotone,39.0851,17.1178,281.59,69,96,8.82,IT,2023-01-28 14:43:25
284,havre-saint-pierre,50.2334,-63.5986,272.15,93,100,8.23,CA,2023-01-28 14:43:26
285,kampene,-3.6,26.6667,291.91,99,70,0.35,CD,2023-01-28 14:43:26
286,vao,-22.6667,167.4833,297.97,71,100,4.81,NC,2023-01-28 14:43:27
287,sattahip,12.6664,100.9007,293.2,64,42,3.09,TH,2023-01-28 14:43:28
288,makakilo city,21.3469,-158.0858,298.33,63,75,8.23,US,2023-01-28 14:43:28
289,ixtapa,20.7,-105.2,297.16,83,100,0.89,MX,2023-01-28 14:43:29
290,westport,41.1415,-73.3579,283.14,56,0,2.06,US,2023-01-28 14:43:30
291,yerofey pavlovich,53.9667,121.9667,246.23,98,100,1.21,RU,2023-01-28 14:43:30
292,itoman,26.1247,127.6694,285.16,73,75,8.75,JP,2023-01-28 14:43:31
293,altamont,42.2068,-121.7372,279.7,70,0,2.57,US,2023-01-28 14:41:59
294,khani,41.9563,42.9566,273.91,71,100,1.63,GE,2023-01-28 14:42:18
295,halifax,44.6453,-63.5724,277.71,84,98,6.17,CA,2023-01-28 14:39:22
296,port blair,11.6667,92.75,300.17,74,40,3.09,IN,2023-01-28 14:43:33
297,cabra,37.4725,-4.4421,279.07,52,0,1.6,ES,2023-01-28 14:43:33
298,uyemskiy,64.4743,40.8524,269.18,93,100,6.0,RU,2023-01-28 14:43:34
299,bac lieu,9.285,105.7244,295.82,80,100,3.04,VN,2023-01-28 14:43:10
300,mar del plata,-38.0023,-57.5575,296.16,84,0,7.15,AR,2023-01-28 14:43:02
301,gizo,-8.103,156.8419,301.87,71,20,2.12,SB,2023-01-28 14:43:36
302,tsiroanomandidy,-18.7667,46.0333,292.75,97,89,1.57,MG,2023-01-28 14:43:37
303,paranaiba,-19.6772,-51.1908,297.12,82,25,2.73,BR,2023-01-28 14:43:38
304,mocuba,-16.8392,36.9856,296.66,84,100,1.72,MZ,2023-01-28 14:43:38
305,pajan,-1.5667,-80.4167,299.49,81,64,2.29,EC,2023-01-28 14:43:39
306,arenapolis,-14.4503,-56.8461,294.92,94,99,1.65,BR,2023-01-28 14:43:40
307,nagato,34.3833,131.2,277.25,62,100,7.1,JP,2023-01-28 14:43:40
308,kibala,9.1104,18.3463,295.12,68,0,0.0,TD,2023-01-28 14:43:41
309,smithers,54.7804,-127.1743,267.33,45,20,3.09,CA,2023-01-28 14:43:32
310,linxia,35.6003,103.2064,263.98,70,2,1.73,CN,2023-01-28 14:43:42
311,concarneau,47.875,-3.9225,278.31,81,10,2.7,FR,2023-01-28 14:43:43
312,hualmay,-11.0964,-77.6139,296.26,77,100,4.3,PE,2023-01-28 14:43:44
313,itarema,-2.9248,-39.9167,299.58,78,11,5.9,BR,2023-01-28 14:43:18
314,sibolga,1.7427,98.7792,297.02,87,100,1.61,ID,2023-01-28 14:42:59
315,buala,-8.145,159.5921,301.53,75,71,2.02,SB,2023-01-28 14:43:45
316,sturgeon bay,44.8342,-87.377,265.35,62,0,3.6,US,2023-01-28 14:42:33
317,felanitx,39.4696,3.1483,279.44,71,99,6.48,ES,2023-01-28 14:43:47
318,vardo,70.3705,31.1107,272.0,78,80,4.71,NO,2023-01-28 14:42:06
319,san angelo,31.4638,-100.437,290.27,57,0,5.36,US,2023-01-28 14:43:48
320,miri,4.4148,114.0089,297.23,94,40,2.57,MY,2023-01-28 14:43:49
321,morant bay,17.8815,-76.4093,302.94,71,60,8.04,JM,2023-01-28 14:43:50
322,gagra,43.3283,40.2239,280.66,84,100,1.06,GE,2023-01-28 14:43:50
323,usinsk,65.9939,57.5281,262.62,95,99,6.26,RU,2023-01-28 14:43:51
324,phenix city,32.471,-85.0008,289.41,24,0,3.6,US,2023-01-28 14:43:52
325,forres,57.6113,-3.6108,281.05,83,100,8.75,GB,2023-01-28 14:43:52
326,williams lake,52.1415,-122.1445,264.91,52,0,7.2,CA,2023-01-28 14:40:28
327,aklavik,68.2191,-135.0107,247.15,76,75,2.06,CA,2023-01-28 14:43:53
328,kodiak,57.79,-152.4072,274.88,100,100,0.0,US,2023-01-28 14:40:46
329,talaya,61.3833,152.75,238.9,97,99,0.85,RU,2023-01-28 14:43:39
330,lebu,-37.6167,-73.65,289.9,82,0,9.26,CL,2023-01-28 14:41:51
331,narsaq,60.9167,-46.05,266.27,76,14,6.09,GL,2023-01-28 14:43:55
332,mbandaka,0.0487,18.2603,297.03,72,87,1.52,CD,2023-01-28 14:43:56
333,flinders,-34.5833,150.8552,302.62,84,83,2.24,AU,2023-01-28 14:43:57
334,westlock,54.1502,-113.8688,256.59,76,89,6.94,CA,2023-01-28 14:43:57
335,arequipa,-16.3989,-71.535,287.19,88,100,3.09,PE,2023-01-28 14:43:58
336,kupang,-10.1667,123.5833,299.47,94,20,0.51,ID,2023-01-28 14:43:59
337,santa luzia,-19.7697,-43.8514,296.75,78,40,3.09,BR,2023-01-28 14:43:59
338,placido de castro,-10.3353,-67.1856,298.37,83,94,1.48,BR,2023-01-28 14:44:00
339,ginir,7.1333,40.7,287.06,51,1,2.69,ET,2023-01-28 14:44:01
340,pangnirtung,66.1451,-65.7125,233.9,87,38,3.01,CA,2023-01-28 14:39:06
341,alta floresta,-9.8756,-56.0861,293.85,98,98,0.94,BR,2023-01-28 14:44:02
342,sinnamary,5.3833,-52.95,297.31,83,76,3.93,GF,2023-01-28 14:42:58
343,duminichi,53.9345,35.1099,267.12,92,8,0.43,RU,2023-01-28 14:44:03
344,sabzevar,36.2126,57.6819,274.19,65,20,1.92,IR,2023-01-28 14:44:04
345,cap malheureux,-19.9842,57.6142,298.41,89,81,2.8,MU,2023-01-28 14:39:11
346,pascagoula,30.3658,-88.5561,290.55,57,0,7.72,US,2023-01-28 14:44:06
347,puerto penasco,31.3167,-113.5333,288.66,68,27,2.68,MX,2023-01-28 14:44:07
348,monrovia,6.3005,-10.7969,298.02,87,9,4.16,LR,2023-01-28 14:44:07
349,general bravo,25.8,-99.1667,299.77,39,99,1.85,MX,2023-01-28 14:44:08
350,dargaville,-35.9333,173.8833,298.19,67,100,4.0,NZ,2023-01-28 14:40:03
351,rehoboth,-23.3167,17.0833,297.58,42,63,4.03,NA,2023-01-28 14:44:09
352,benguela,-12.5763,13.4055,299.92,76,95,1.43,AO,2023-01-28 14:44:10
353,hasaki,35.7333,140.8333,269.37,47,97,4.22,JP,2023-01-28 14:39:13
354,polson,47.6936,-114.1632,264.13,83,98,4.05,US,2023-01-28 14:44:11
355,dzhebariki-khaya,62.2167,135.8,225.38,100,76,0.56,RU,2023-01-28 14:44:12
356,basco,20.4487,121.9702,293.11,68,100,12.51,PH,2023-01-28 14:44:13
357,provideniya,64.3833,-173.3,270.48,99,100,1.97,RU,2023-01-28 14:44:14
358,barra do garcas,-15.89,-52.2567,295.6,93,100,1.7,BR,2023-01-28 14:44:15
359,srednekolymsk,67.45,153.6833,242.72,99,100,1.27,RU,2023-01-28 14:44:16
360,san cristobal,7.7669,-72.225,294.25,77,12,1.0,VE,2023-01-28 14:41:51
361,north platte,41.1239,-100.7654,263.09,82,100,8.05,US,2023-01-28 14:41:54
362,matara,5.9485,80.5353,295.85,89,79,1.49,LK,2023-01-28 14:43:35
363,karratha,-20.7377,116.8463,302.76,50,65,1.18,AU,2023-01-28 14:44:18
364,severomuysk,56.1481,113.4267,251.18,99,100,1.92,RU,2023-01-28 14:44:19
365,atoyac,20.0167,-103.5333,298.52,27,49,4.58,MX,2023-01-28 14:44:19
366,bhikangaon,21.8667,75.95,293.67,50,0,2.69,IN,2023-01-28 14:44:20
367,anzio,41.4853,12.6179,280.85,65,36,3.05,IT,2023-01-28 14:44:21
368,belyy yar,53.6039,91.3903,270.09,68,0,7.0,RU,2023-01-28 14:44:22
369,lubango,-14.9172,13.4925,287.57,84,100,0.92,AO,2023-01-28 14:44:22
370,rantepao,-2.9701,119.8978,293.01,97,100,0.89,ID,2023-01-28 14:44:23
371,thai binh,20.45,106.3333,284.91,51,3,2.99,VN,2023-01-28 14:44:24
372,anadyr,64.75,177.4833,271.43,80,0,6.0,RU,2023-01-28 14:44:25
373,chicama,-7.8447,-79.1469,293.45,67,99,3.85,PE,2023-01-28 14:44:26
374,baglan,36.1307,68.7083,274.04,89,100,1.11,AF,2023-01-28 14:44:27
375,curuca,-0.7289,-47.8481,296.49,94,95,1.57,BR,2023-01-28 14:44:27
376,tahe,52.3333,124.7333,248.46,95,99,0.89,CN,2023-01-28 14:44:28
377,perpignan,42.75,2.75,276.95,65,75,5.66,FR,2023-01-28 14:44:29
378,awjilah,29.1081,21.2869,285.97,49,0,3.85,LY,2023-01-28 14:44:29
379,baoning,25.3378,110.026,276.07,81,0,0.0,CN,2023-01-28 14:44:30
380,biltine,14.5333,20.9167,298.76,11,85,3.43,TD,2023-01-28 14:44:31
381,rudsar,37.1376,50.288,282.26,69,100,2.2,IR,2023-01-28 14:44:32
382,tautira,-17.7333,-149.15,300.22,75,8,5.41,PF,2023-01-28 14:44:32
383,yarmouth,41.7057,-70.2286,280.38,72,0,4.63,US,2023-01-28 14:44:33
384,panama city,8.9936,-79.5197,303.12,55,20,6.17,PA,2023-01-28 14:44:34
385,port augusta,-32.5,137.7667,295.14,82,100,1.96,AU,2023-01-28 14:44:34
386,kalmar,56.6616,16.3616,276.11,93,100,3.6,SE,2023-01-28 14:44:35
387,wanning,18.8003,110.3967,284.72,68,7,4.5,CN,2023-01-28 14:44:36
388,ozernovskiy,51.5,156.5167,267.56,94,100,2.39,RU,2023-01-28 14:44:37
389,aasiaat,68.7098,-52.8699,259.97,84,100,8.77,GL,2023-01-28 14:44:37
390,codrington,-38.2667,141.9667,288.09,88,100,3.3,AU,2023-01-28 14:41:51
391,yadgir,16.7667,77.1333,292.27,55,0,2.08,IN,2023-01-28 14:44:38
392,cayenne,4.9333,-52.3333,297.17,94,100,1.54,GF,2023-01-28 14:41:28
393,rypefjord,70.6333,23.6667,273.41,74,75,5.66,NO,2023-01-28 14:44:40
394,balkanabat,39.5108,54.3671,276.07,46,34,1.07,TM,2023-01-28 14:44:40
395,berlevag,70.8578,29.0864,272.15,80,100,6.17,NO,2023-01-28 14:43:52
396,sharjah,25.3573,55.4033,289.14,82,0,2.06,AE,2023-01-28 14:40:01
397,gao,16.6362,1.637,289.45,8,81,4.45,ML,2023-01-28 14:44:42
398,lagoa,39.05,-27.9833,287.38,76,44,7.54,PT,2023-01-28 14:44:43
399,sakakah,29.9697,40.2064,286.91,49,85,3.97,SA,2023-01-28 14:44:43
400,yumen,40.2833,97.2,263.97,35,59,4.54,CN,2023-01-28 14:44:44
401,port hedland,-20.3167,118.5667,302.18,84,99,1.54,AU,2023-01-28 14:44:45
402,kutum,14.2,24.6667,292.95,11,97,2.85,SD,2023-01-28 14:44:45
403,sakaiminato,35.55,133.2333,274.11,93,75,3.6,JP,2023-01-28 14:44:46
404,ganzhou,28.8184,115.4327,274.03,46,0,1.18,CN,2023-01-28 14:44:47
405,cody,44.5263,-109.0565,258.51,66,100,9.26,US,2023-01-28 14:44:47
406,peniche,39.3558,-9.3811,281.73,78,0,5.72,PT,2023-01-28 14:44:48
407,leningradskiy,69.3833,178.4167,256.7,94,100,3.5,RU,2023-01-28 14:44:49
408,aginskoye,51.1,114.53,256.91,87,11,4.55,RU,2023-01-28 14:44:50
409,porto franco,-6.3383,-47.3992,295.81,93,95,1.27,BR,2023-01-28 14:44:51
410,ankazobe,-18.3167,47.1167,291.94,96,100,1.68,MG,2023-01-28 14:44:52
411,thompson,55.7435,-97.8558,248.24,64,75,6.17,CA,2023-01-28 14:44:52
412,karoi,-16.8099,29.6925,290.52,94,94,1.7,ZW,2023-01-28 14:44:53
413,robertsport,6.7533,-11.3686,299.1,88,30,4.63,LR,2023-01-28 14:44:54
414,neepawa,50.2289,-99.4664,252.37,85,9,6.12,CA,2023-01-28 14:42:19
415,manavalakurichi,8.1333,77.3,295.1,76,31,2.04,IN,2023-01-28 14:44:55
416,visby,57.6409,18.296,276.27,93,100,4.63,SE,2023-01-28 14:42:13
417,jaru,-10.4389,-62.4664,296.32,95,100,1.23,BR,2023-01-28 14:44:56
418,ingham,42.6,-84.3833,271.25,87,100,0.0,US,2023-01-28 14:44:56
419,bonito,-21.1211,-56.4819,299.33,73,19,2.33,BR,2023-01-28 14:44:57
420,beyneu,45.3167,55.2,270.4,68,0,4.23,KZ,2023-01-28 14:44:58
421,saint-augustin,51.226,-58.6502,259.99,95,99,2.04,CA,2023-01-28 14:44:58
422,lazaro cardenas,17.9583,-102.2,301.42,48,3,4.73,MX,2023-01-28 14:44:59
423,imbituba,-28.24,-48.6703,298.39,84,87,5.49,BR,2023-01-28 14:45:00
424,shimoda,34.6667,138.95,274.87,72,17,3.6,JP,2023-01-28 14:45:00
425,huarmey,-10.0681,-78.1522,295.91,78,100,3.7,PE,2023-01-28 14:45:01
426,kokopo,-4.352,152.2633,301.27,68,80,0.24,PG,2023-01-28 14:45:01
427,ciudad bolivar,8.1222,-63.5497,301.12,48,25,5.56,VE,2023-01-28 14:43:02
428,chissamba,-12.1667,17.3333,289.44,94,100,1.53,AO,2023-01-28 14:45:02
429,broome,42.2506,-75.833,275.08,93,99,0.63,US,2023-01-28 14:43:55
430,nouakchott,18.0858,-15.9785,292.11,38,18,5.92,MR,2023-01-28 14:45:04
431,la macarena,2.1837,-73.7849,300.42,46,5,1.43,CO,2023-01-28 14:45:04
432,maues,-3.3836,-57.7186,296.79,97,87,1.26,BR,2023-01-28 14:45:05
433,imeni poliny osipenko,52.4201,136.4853,236.02,100,99,1.25,RU,2023-01-28 14:45:06
434,vila velha,-20.3297,-40.2925,300.12,90,40,5.66,BR,2023-01-28 14:45:07
435,srivardhan,18.0333,73.0167,294.48,91,6,1.39,IN,2023-01-28 14:45:07
436,sola,-13.8833,167.55,301.09,75,15,4.47,VU,2023-01-28 14:41:26
437,lakatoro,-16.0999,167.4164,302.74,71,20,3.81,VU,2023-01-28 14:45:08
438,guerrero negro,27.9769,-114.0611,291.71,35,69,3.21,MX,2023-01-28 14:45:09
439,nioro,13.35,-15.75,299.95,13,38,4.6,GM,2023-01-28 14:45:10
440,luanda,-8.8368,13.2343,299.15,89,75,1.03,AO,2023-01-28 14:45:11
441,comodoro rivadavia,-45.8667,-67.5,305.07,22,0,8.75,AR,2023-01-28 14:43:02
442,urucara,-2.5364,-57.76,296.55,97,99,1.36,BR,2023-01-28 14:45:12
443,hobyo,5.3505,48.5268,297.58,72,27,9.1,SO,2023-01-28 14:45:13
444,menongue,-14.6585,17.691,290.38,95,100,3.31,AO,2023-01-28 14:45:13
445,terrace bay,48.7834,-87.1,252.44,96,89,4.0,CA,2023-01-28 14:45:14
446,mombetsu,44.3525,143.3525,266.03,79,97,7.42,JP,2023-01-28 14:42:16
447,srandakan,-7.9386,110.2506,297.54,91,100,1.33,ID,2023-01-28 14:45:15
448,phuntsholing,26.8516,89.3884,289.91,57,0,2.66,BT,2023-01-28 14:45:15
449,kutahya,39.4242,29.9833,275.96,88,89,1.98,TR,2023-01-28 14:45:16
450,ranong,9.9658,98.6348,299.11,80,85,3.58,TH,2023-01-28 14:45:17
451,kalach-na-donu,48.691,43.5264,266.62,94,97,2.75,RU,2023-01-28 14:45:18
452,lasa,46.6166,10.7002,271.64,82,56,1.85,IT,2023-01-28 14:45:18
453,batemans bay,-35.7167,150.1833,297.09,83,100,4.05,AU,2023-01-28 14:45:19
454,gweru,-19.45,29.8167,290.07,63,32,2.19,ZW,2023-01-28 14:45:20
455,waw,7.7029,27.9953,300.09,21,6,1.55,SS,2023-01-28 14:45:20
456,kampong cham,11.9934,105.4635,293.9,64,70,6.6,KH,2023-01-28 14:45:21
457,fukue,32.6881,128.8419,280.6,63,100,8.51,JP,2023-01-28 14:45:21
458,carmen,18.6333,-91.8333,299.14,72,15,2.6,MX,2023-01-28 14:43:50
459,mugur-aksy,50.35,90.5,256.02,69,95,2.91,RU,2023-01-28 14:45:23
460,hovd,48.0056,91.6419,254.76,78,4,0.92,MN,2023-01-28 14:45:23
461,teguldet,57.3064,88.1667,264.69,92,100,5.87,RU,2023-01-28 14:45:24
462,nelson bay,-32.7167,152.15,303.2,79,43,5.81,AU,2023-01-28 14:45:24
463,aksu,41.1231,80.2644,261.95,90,100,1.36,CN,2023-01-28 14:45:25
464,jakar,27.5492,90.7525,276.31,86,66,1.61,BT,2023-01-28 14:45:26
465,matagami,49.7502,-77.6328,252.21,71,75,2.57,CA,2023-01-28 14:45:26
466,anito,12.4497,125.2886,297.97,90,74,6.69,PH,2023-01-28 14:45:27
467,carahue,-38.7,-73.1667,291.52,73,0,3.39,CL,2023-01-28 14:45:28
468,salta,-24.7859,-65.4117,298.48,82,75,1.54,AR,2023-01-28 14:45:28
469,hurghada,27.2574,33.8129,291.17,88,0,0.0,EG,2023-01-28 14:45:29
470,cidreira,-30.1811,-50.2056,297.55,89,97,3.17,BR,2023-01-28 14:45:30
471,margate,51.3813,1.3862,277.98,74,88,0.45,GB,2023-01-28 14:40:46
472,bardiyah,31.7561,25.0865,287.15,60,5,0.75,LY,2023-01-28 14:45:31
473,kruisfontein,-34.0033,24.7314,289.2,71,98,5.38,ZA,2023-01-28 14:45:32
474,sertanopolis,-23.0586,-51.0364,303.19,77,48,2.07,BR,2023-01-28 14:45:32
475,mareeba,-17.0,145.4333,298.95,87,40,2.54,AU,2023-01-28 14:45:33
476,saldanha,-33.0117,17.9442,289.18,74,0,10.0,ZA,2023-01-28 14:45:33
477,petropavlovsk-kamchatskiy,53.0452,158.6483,269.48,68,75,8.0,RU,2023-01-28 14:45:03
478,gboko,7.3179,8.9951,301.29,59,75,5.94,NG,2023-01-28 14:45:35
479,aqtobe,50.2797,57.2072,250.2,77,100,2.0,KZ,2023-01-28 14:45:35
480,ferme-neuve,46.7001,-75.4493,259.84,92,89,1.93,CA,2023-01-28 14:42:16
481,adrar,20.5022,-10.0711,285.63,38,69,3.37,MR,2023-01-28 14:45:37
482,port lincoln,-34.7333,135.8667,290.51,84,100,7.29,AU,2023-01-28 14:45:37
483,muros,42.7762,-9.0603,279.17,80,38,6.78,ES,2023-01-28 14:45:38
484,dongsheng,39.8161,109.9776,262.1,39,0,4.7,CN,2023-01-28 14:45:39
485,nanakuli,21.3906,-158.1547,299.12,60,75,6.17,US,2023-01-28 14:45:39
486,saint-pierre,-21.3393,55.4781,298.97,78,0,2.06,RE,2023-01-28 14:45:40
487,pasni,25.2631,63.471,291.28,56,15,5.42,PK,2023-01-28 14:45:41
488,vestmannaeyjar,63.4427,-20.2734,278.91,72,96,11.94,IS,2023-01-28 14:45:41
489,deputatskiy,69.3,139.9,236.04,97,94,1.84,RU,2023-01-28 14:45:42
490,jos,9.9167,8.9,294.95,39,27,2.16,NG,2023-01-28 14:45:42
491,hayden,47.766,-116.7866,270.49,56,100,7.72,US,2023-01-28 14:45:43
492,ketchikan,55.3422,-131.6461,279.41,36,0,1.54,US,2023-01-28 14:43:59
493,kununurra,-15.7667,128.7333,299.14,78,100,4.63,AU,2023-01-28 14:44:56
494,burns lake,54.2331,-125.7533,263.83,69,3,0.79,CA,2023-01-28 14:45:45
495,bulgan,48.8125,103.5347,257.06,81,10,1.89,MN,2023-01-28 14:41:48
496,campo verde,-20.4167,-54.0667,296.96,84,24,2.07,BR,2023-01-28 14:41:58
497,alofi,-19.0595,-169.9187,301.09,78,94,2.57,NU,2023-01-28 14:45:47
498,new corella,7.6,125.8667,295.61,94,100,1.71,PH,2023-01-28 14:45:47
499,victor harbor,-35.5667,138.6167,290.19,92,100,0.45,AU,2023-01-28 14:45:48
500,rayachoti,14.05,78.75,289.56,82,66,0.95,IN,2023-01-28 14:45:49
501,aksay,47.26,39.87,274.4,66,100,6.26,RU,2023-01-28 14:45:49
502,aripuana,-9.1667,-60.6333,296.0,97,100,0.85,BR,2023-01-28 14:45:50
503,katsuura,35.1333,140.3,276.92,55,82,5.39,JP,2023-01-28 14:43:43
504,jinxiang,27.4327,120.6062,276.99,56,1,2.16,CN,2023-01-28 14:45:51
505,prigorodka,52.0447,39.7124,263.15,94,5,2.03,RU,2023-01-28 14:45:52
506,dunedin,-45.8742,170.5036,293.6,64,5,0.89,NZ,2023-01-28 14:42:39
507,luena,-11.7833,19.9167,290.04,95,100,1.65,AO,2023-01-28 14:45:53
508,port-gentil,-0.7193,8.7815,298.13,100,20,0.0,GA,2023-01-28 14:45:53
509,cazanesti,44.6167,27.0167,273.14,92,100,2.93,RO,2023-01-28 14:45:54
510,acarau,-2.8856,-40.12,299.57,79,4,6.0,BR,2023-01-28 14:45:55
511,prichard,30.7388,-88.0789,289.25,52,51,0.89,US,2023-01-28 14:45:56
512,luderitz,-26.6481,15.1594,291.65,74,0,9.41,NA,2023-01-28 14:45:56
513,gornopravdinsk,60.05,69.9,255.27,99,60,2.32,RU,2023-01-28 14:45:57
514,nanortalik,60.1432,-45.2371,266.88,67,81,15.13,GL,2023-01-28 14:41:27
515,jiwani,25.05,61.7417,291.64,65,2,5.21,PK,2023-01-28 14:45:58
516,kawalu,-7.3817,108.2082,295.22,95,97,0.71,ID,2023-01-28 14:45:59
517,lubao,14.9167,120.55,296.19,76,76,3.69,PH,2023-01-28 14:46:00
518,puerto baquerizo moreno,-0.9,-89.6,297.7,94,100,3.09,EC,2023-01-28 14:46:01
519,olafsvik,64.8945,-23.7142,276.93,72,97,8.46,IS,2023-01-28 14:46:01
520,carauari,-4.8828,-66.8958,297.16,95,100,0.66,BR,2023-01-28 14:44:54
521,bud,39.447,-86.1758,284.83,72,91,5.81,US,2023-01-28 14:46:03
522,kaitangata,-46.2817,169.8464,292.72,54,15,2.0,NZ,2023-01-28 14:46:03
523,naliya,23.2667,68.8333,289.17,36,0,4.96,IN,2023-01-28 14:46:04
524,tobermory,45.2501,-81.6665,267.7,73,100,3.63,CA,2023-01-28 14:46:05
525,mogadishu,2.0371,45.3438,297.38,82,18,9.45,SO,2023-01-28 14:46:06
526,veraval,20.9,70.3667,292.82,63,0,4.66,IN,2023-01-28 14:46:07
527,salalah,17.0151,54.0924,292.46,33,74,7.78,OM,2023-01-28 14:44:01
528,ulladulla,-35.35,150.4667,297.2,80,98,2.18,AU,2023-01-28 14:46:09
529,iaciara,-14.0958,-46.6317,295.39,85,69,0.53,BR,2023-01-28 14:46:10
530,san jeronimo,-11.9472,-75.2829,286.98,74,98,2.15,PE,2023-01-28 14:46:11
531,san francisco del mar,16.2333,-94.65,300.39,61,7,10.64,MX,2023-01-28 14:46:12
532,dicabisagan,17.0818,122.4157,294.01,86,100,4.43,PH,2023-01-28 14:46:13
533,lefka,35.1106,32.8506,286.3,76,82,3.03,CY,2023-01-28 14:46:13
534,blaubeuren,48.4122,9.7843,272.63,97,87,1.23,DE,2023-01-28 14:46:14
535,pevek,69.7008,170.3133,262.45,81,78,6.99,RU,2023-01-28 14:41:42
536,urbana,40.1106,-88.2073,283.2,62,0,7.2,US,2023-01-28 14:46:16
537,casambalangan,18.3765,122.1274,293.55,80,100,5.86,PH,2023-01-28 14:46:17
538,mount gambier,-37.8333,140.7667,288.19,89,100,3.03,AU,2023-01-28 14:46:18
539,ilulissat,69.2167,-51.1,263.16,73,100,8.23,GL,2023-01-28 14:46:20
540,san pedro,14.35,121.0167,296.72,80,20,1.03,PH,2023-01-28 14:46:21
541,aktau,43.65,51.2,268.47,57,1,5.79,KZ,2023-01-28 14:46:22
542,sarangani,5.4033,125.4636,298.58,87,100,3.78,PH,2023-01-28 14:46:22
543,warrington,53.3925,-2.5802,280.3,96,100,2.57,GB,2023-01-28 14:46:23
544,chunskiy,56.0815,99.6342,267.44,95,100,2.44,RU,2023-01-28 14:46:24
545,venice,27.0998,-82.4543,295.4,83,98,3.58,US,2023-01-28 14:46:25
546,kavieng,-2.5744,150.7967,302.08,70,76,3.8,PG,2023-01-28 14:46:25
547,mandalgovi,45.7625,106.2708,259.68,74,2,2.87,MN,2023-01-28 14:46:27
548,kiruna,67.8557,20.2251,265.66,79,20,4.12,SE,2023-01-28 14:46:27
549,lumberton,34.6182,-79.0086,287.32,38,0,2.06,US,2023-01-28 14:43:50
550,porbandar,21.6422,69.6093,292.85,57,0,4.53,IN,2023-01-28 14:46:29
551,carndonagh,55.25,-7.2667,277.18,90,99,2.66,IE,2023-01-28 14:46:29
552,shizunai,42.3339,142.3669,265.26,63,81,6.57,JP,2023-01-28 14:43:06
553,progreso,21.2833,-89.6667,297.41,80,38,6.58,MX,2023-01-28 14:46:30
554,avera,33.194,-82.5271,286.18,55,100,1.87,US,2023-01-28 14:42:42
